Time (s),Latitude (°),Longitude (°),Height (m),Velocity (m/s),Direction (°),Horizontal Accuracy (m),Vertical Accuracy (m),w,x,y,z,Direct (°),Yaw (°),Pitch (°),Roll (°),Acceleration x (m/s^2),Acceleration y (m/s^2),Acceleration z (m/s^2),Gyroscope x (rad/s),Gyroscope y (rad/s),Gyroscope z (rad/s),Linear Acceleration x (m/s^2),Linear Acceleration y (m/s^2),Linear Acceleration z (m/s^2)
7.201304616,21.00606833,73.959885,10527.09773,237.3605499,220.9199982,5.5,91.40000153,,,,,,,,,,,,,,,,,
8.202116001,21.00443833,73.95837667,10526.10092,236.8967896,220.9400024,5.5,130.8000031,,,,,,,,,,,,,,,,,
9.206097462,21.00274,73.956905,10510.40436,236.9523773,220.75,5.199999809,126.5,,,,,,,,,,,,,,,,,
10.20638892,21.00108333,73.95540833,10512.50764,236.8020782,220.9299927,4.599999905,115.1999969,,,,,,,,,,,,,,,,,
11.83117131,20.99844667,73.95297833,10507.01364,236.3805237,221.0399933,4.5,113.3000031,,,,,,,,,,,,,,,,,
12.82864677,20.99682833,73.951475,10505.71767,236.5128021,221.0700073,4.300000191,111.1999969,,,,,,,,,,,,,,,,,
13.83061323,20.99521667,73.94996167,10507.32167,236.7542114,221.0500031,4.199999809,96.69999695,,,,,,,,,,,,,,,,,
14.83075008,20.993595,73.94845333,10511.12571,236.5941315,220.9700012,4.099999905,74.69999695,,,,,,,,,,,,,,,,,
15.82870462,20.99198333,73.94695167,10510.42971,236.4474335,221.0200043,4.0,70.59999847,,,,,,,,,,,,,,,,,
16.83114116,20.99037333,73.94545,10510.23371,236.6718445,221.0500031,3.900000095,70.40000153,,,,,,,,,,,,,,,,,
17.83117046,20.98876,73.94395667,10509.63773,236.3249359,220.9299927,3.900000095,71.0,,,,,,,,,,,,,,,,,
18.82820577,20.98714333,73.94245833,10512.24175,236.6049347,220.8600006,3.700000048,65.90000153,,,,,,,,,,,,,,,,,
19.829675,20.98552667,73.94096667,10512.84578,236.7341309,220.9299927,3.700000048,60.09999847,,,,,,,,,,,,,,,,,
20.83067631,20.98391167,73.93947167,10513.64979,236.5740509,221.1100006,3.599999905,55.0,,,,,,,,,,,,,,,,,
21.82919777,20.98230167,73.93796667,10516.35378,236.4206696,221.2400055,3.5,49.5,,,,,,,,,,,,,,,,,
22.83056769,20.98071333,73.93649833,10501.25773,236.1210938,221.1499939,3.400000095,35.70000076,,,,,,,,,,,,,,,,,
23.832932,20.97910667,73.93502,10497.36173,236.7531738,221.3300018,3.299999952,34.79999924,,,,,,,,,,,,,,,,,
24.82860923,20.97749833,73.93352333,10497.16571,236.2847748,221.1199951,3.200000048,31.10000038,,,,,,,,,,,,,,,,,
25.83027039,20.97589333,73.93203167,10496.76968,236.084549,221.0899963,3.099999905,30.20000076,,,,,,,,,,,,,,,,,
26.83081508,20.97428667,73.93054667,10495.37367,236.4036865,221.0299988,3.0,29.5,,,,,,,,,,,,,,,,,
27.82856339,20.97267667,73.929055,10494.07766,236.5853729,221.0599976,3.0,29.10000038,,,,,,,,,,,,,,,,,
28.83065046,20.971075,73.92755833,10492.58161,236.1530151,221.0200043,2.900000095,28.79999924,,,,,,,,,,,,,,,,,
29.83182485,20.96946833,73.92606833,10490.68559,236.5580902,221.0899963,2.799999952,28.10000038,,,,,,,,,,,,,,,,,
30.82882369,20.967865,73.92457333,10489.08955,236.1900787,221.0800018,2.799999952,27.39999962,,,,,,,,,,,,,,,,,
31.83070154,20.96625833,73.923085,10486.49352,236.5797119,221.1900024,2.799999952,27.60000038,,,,,,,,,,,,,,,,,
32.83200123,20.964655,73.92159333,10485.59748,236.1952209,221.0500031,2.799999952,27.89999962,,,,,,,,,,,,,,,,,
33.82984177,20.96305333,73.92011,10483.40143,235.8215332,221.1399994,2.700000048,27.39999962,,,,,,,,,,,,,,,,,
34.83053408,20.96144833,73.91862667,10480.9054,236.3944092,221.0700073,2.700000048,27.0,,,,,,,,,,,,,,,,,
35.83256946,20.95984,73.91714667,10479.10938,236.2585297,221.0899963,2.599999905,26.10000038,,,,,,,,,,,,,,,,,
36.82896677,20.95823167,73.91566167,10477.51336,236.9034729,221.0099945,2.599999905,27.0,,,,,,,,,,,,,,,,,
37.83213777,20.95662833,73.91417,10478.01731,236.6018524,221.0500031,2.599999905,27.20000076,,,,,,,,,,,,,,,,,
38.8310347,20.95502667,73.91267833,10478.12125,235.6182098,221.2200012,2.599999905,26.29999924,,,,,,,,,,,,,,,,,
39.83003477,20.95343333,73.91118667,10479.52515,235.6537323,221.3399963,2.700000048,27.0,,,,,,,,,,,,,,,,,
40.83031446,20.95183333,73.909695,10479.32908,236.4366302,221.1900024,2.599999905,28.60000038,,,,,,,,,,,,,,,,,
41.83198739,20.95023667,73.9082,10480.533,236.0716858,221.2299957,2.599999905,26.70000076,,,,,,,,,,,,,,,,,
42.82864854,20.94864,73.90671,10481.33691,235.8966827,221.2200012,2.599999905,26.29999924,,,,,,,,,,,,,,,,,
43.83163285,20.94704333,73.90521667,10481.64082,236.1360321,221.25,2.5,25.0,,,,,,,,,,,,,,,,,
44.83111139,20.94544167,73.90372167,10481.54475,236.1231537,221.2299957,2.599999905,23.60000038,,,,,,,,,,,,,,,,,
45.83010454,20.94384167,73.902225,10482.24866,236.4278717,221.1900024,2.599999905,23.39999962,,,,,,,,,,,,,,,,,
46.830623,20.94224,73.90073,10481.15258,236.0145569,221.2599945,2.599999905,20.39999962,,,,,,,,,,,,,,,,,
47.83346739,20.94063833,73.89924,10480.45651,235.7021179,221.1399994,2.599999905,20.29999924,,,,,,,,,,,,,,,,,
48.82838739,20.93904167,73.89774833,10480.36041,236.2080841,221.2899933,2.599999905,20.70000076,,,,,,,,,,,,,,,,,
49.8328267,20.93744333,73.896255,10480.36432,235.8539581,221.1499939,2.599999905,21.20000076,,,,,,,,,,,,,,,,,
50.83232177,20.935845,73.89476333,10480.26822,235.8575592,221.1999969,2.599999905,21.0,,,,,,,,,,,,,,,,,
51.83017016,20.93424167,73.893275,10479.77215,235.8549805,221.1499939,2.599999905,21.60000038,,,,,,,,,,,,,,,,,
52.83159008,20.93264333,73.89178167,10479.17605,236.0299988,221.2700043,2.599999905,19.5,,,,,,,,,,,,,,,,,
53.83228547,20.93104667,73.89029333,10477.87995,235.4416656,221.2700043,2.5,19.0,,,,,,,,,,,,,,,,,
54.82882123,20.92944833,73.8888,10478.38384,236.0835266,221.2200012,2.599999905,19.20000076,,,,,,,,,,,,,,,,,
55.82992516,20.92784667,73.88730667,10478.18775,236.0526428,221.2200012,2.599999905,20.0,,,,,,,,,,,,,,,,,
56.83062639,20.92625,73.88581167,10477.49164,235.5317383,221.3399963,2.700000048,20.70000076,,,,,,,,,,,,,,,,,
57.83010677,20.924655,73.88431833,10476.99552,235.6732941,221.3099976,2.700000048,20.70000076,,,,,,,,,,,,,,,,,
58.83022608,20.92305333,73.882825,10477.09942,236.3362579,221.1300049,2.799999952,21.79999924,,,,,,,,,,,,,,,,,
59.83483377,20.92145,73.88134,10476.80333,235.8560181,221.2700043,2.700000048,21.79999924,,,,,,,,,,,,,,,,,
60.82836031,20.92145,73.88134,10476.80333,0.0,221.2700043,2.799999952,20.89999962,,,,,,,,,,,,,,,,,
61.830051,20.91824833,73.87835167,10481.11112,236.2158051,221.2599945,2.799999952,20.89999962,,,,,,,,,,,,,,,,,
62.83133354,20.91664667,73.876865,10481.41502,235.8096924,221.1999969,2.700000048,20.70000076,,,,,,,,,,,,,,,,,
63.83033685,20.91504667,73.87537333,10481.01891,236.5236053,221.3300018,2.700000048,21.10000038,,,,,,,,,,,,,,,,,
64.83184124,20.91344667,73.87387333,10482.32278,235.9538116,221.1799927,2.700000048,20.70000076,,,,,,,,,,,,,,,,,
65.83166977,20.911845,73.87239,10481.42668,235.8601379,221.1999969,2.700000048,20.70000076,,,,,,,,,,,,,,,,,
66.82880954,20.91024167,73.87089833,10482.23058,236.1133728,221.2200012,2.599999905,21.20000076,,,,,,,,,,,,,,,,,
67.83015962,20.90864167,73.86940333,10483.93445,235.7813873,221.3099976,2.599999905,20.89999962,,,,,,,,,,,,,,,,,
68.83104585,20.90704333,73.86791667,10482.93833,235.7891083,221.0700073,2.599999905,20.60000038,,,,,,,,,,,,,,,,,
69.82986,20.90544333,73.86642833,10482.54221,235.7752075,221.1199951,2.599999905,19.5,,,,,,,,,,,,,,,,,
70.83175931,20.90384167,73.86493667,10482.94609,236.016098,221.2599945,2.599999905,19.5,,,,,,,,,,,,,,,,,
71.83152831,20.90224,73.86344667,10483.14997,236.0356598,221.0299988,2.5,20.20000076,,,,,,,,,,,,,,,,,
72.82901908,20.90064167,73.86195,10485.05383,235.6707153,221.3899994,2.5,20.20000076,,,,,,,,,,,,,,,,,
73.83034308,20.89904667,73.860455,10484.35768,236.1591949,221.1799927,2.5,18.60000038,,,,,,,,,,,,,,,,,
74.83169847,20.89744667,73.85896167,10483.56155,236.0696259,221.1100006,2.5,18.5,,,,,,,,,,,,,,,,,
75.83039993,20.89584667,73.85747,10484.16541,235.7535858,221.1999969,2.5,18.79999924,,,,,,,,,,,,,,,,,
76.8320077,20.89425167,73.85597833,10483.36926,235.9944763,221.1900024,2.599999905,17.79999924,,,,,,,,,,,,,,,,,
77.83391285,20.89265333,73.854485,10483.37311,236.0186615,221.2200012,2.5,17.60000038,,,,,,,,,,,,,,,,,
78.82908824,20.89105333,73.85299333,10483.37697,235.9146881,221.1399994,2.5,17.39999962,,,,,,,,,,,,,,,,,
79.831355,20.88945167,73.8515,10483.18084,235.9445496,221.2100067,2.5,16.79999924,,,,,,,,,,,,,,,,,
80.83271039,20.88785167,73.85000833,10483.28469,236.0495453,221.1900024,2.5,16.89999962,,,,,,,,,,,,,,,,,
81.83248493,20.88625,73.848515,10482.98855,236.0814667,221.1100006,2.5,16.5,,,,,,,,,,,,,,,,,
82.83437654,20.88464667,73.84702167,10482.39241,235.9553528,221.1600037,2.5,17.0,,,,,,,,,,,,,,,,,
83.8349147,20.88304667,73.84552667,10482.29626,236.3300781,221.1799927,2.5,17.70000076,,,,,,,,,,,,,,,,,
84.82889631,20.881445,73.84402667,10483.00011,236.1911011,221.0599976,2.5,17.5,,,,,,,,,,,,,,,,,
85.83112516,20.879845,73.84253,10482.70395,236.0984497,221.2599945,2.5,16.89999962,,,,,,,,,,,,,,,,,
86.83175808,20.87824667,73.84103667,10481.80779,236.1195526,221.2100067,2.599999905,17.29999924,,,,,,,,,,,,,,,,,
87.8304067,20.876645,73.83954333,10481.21163,236.392868,221.1799927,2.599999905,17.79999924,,,,,,,,,,,,,,,,,
88.83214731,20.875045,73.83805,10481.01547,235.9996185,221.1999969,2.599999905,16.70000076,,,,,,,,,,,,,,,,,
89.83459162,20.873445,73.836555,10480.71931,236.2667694,221.2899933,2.599999905,16.20000076,,,,,,,,,,,,,,,,,
90.83001078,20.871845,73.83505833,10480.52314,236.2477264,221.3500061,2.599999905,15.89999962,,,,,,,,,,,,,,,,,
91.8320747,20.87024333,73.83356333,10479.92698,236.1005096,221.2400055,2.599999905,16.39999962,,,,,,,,,,,,,,,,,
92.83163193,20.86864167,73.83207167,10479.73082,236.0953674,221.2100067,2.599999905,16.60000038,,,,,,,,,,,,,,,,,
93.8303227,20.86704,73.83058167,10479.53466,236.0742645,221.25,2.599999905,17.39999962,,,,,,,,,,,,,,,,,
94.83110824,20.86543833,73.82908667,10479.53849,236.2693329,221.2400055,2.599999905,18.0,,,,,,,,,,,,,,,,,
95.83240124,20.86383667,73.82759333,10478.84233,236.2327881,221.1900024,2.700000048,18.70000076,,,,,,,,,,,,,,,,,
96.83011624,20.86222833,73.82610667,10478.24619,236.0475006,221.1100006,2.799999952,19.79999924,,,,,,,,,,,,,,,,,
97.83211439,20.86062667,73.82462,10477.75003,236.046463,221.25,2.700000048,20.10000038,,,,,,,,,,,,,,,,,
98.83194547,20.85902167,73.82313,10475.65387,236.5689087,221.2100067,2.700000048,18.60000038,,,,,,,,,,,,,,,,,
99.83044678,20.85741333,73.82163667,10476.15772,236.5858917,221.2799988,2.599999905,18.29999924,,,,,,,,,,,,,,,,,
100.8323059,20.85581,73.82013833,10476.66154,236.810318,221.2200012,2.599999905,18.89999962,,,,,,,,,,,,,,,,,
101.8348631,20.854205,73.81864333,10476.96537,236.4690552,221.1600037,2.599999905,17.10000038,,,,,,,,,,,,,,,,,
102.8296369,20.85259667,73.81715833,10475.56923,236.7171478,221.0800018,2.599999905,17.29999924,,,,,,,,,,,,,,,,,
103.830831,20.85099167,73.815665,10476.17306,236.2749939,221.1999969,2.599999905,18.10000038,,,,,,,,,,,,,,,,,
104.8316892,20.849385,73.814175,10475.8769,236.3583832,221.1999969,2.599999905,18.20000076,,,,,,,,,,,,,,,,,
105.8305735,20.84778167,73.81268,10476.98071,236.0948486,221.2799988,2.599999905,17.5,,,,,,,,,,,,,,,,,
106.8310409,20.84617167,73.81119,10476.58456,236.8000183,221.0399933,2.599999905,17.29999924,,,,,,,,,,,,,,,,,
107.8335227,20.844565,73.80969833,10476.48839,236.3465424,221.1900024,2.599999905,17.79999924,,,,,,,,,,,,,,,,,
108.8287732,20.84295833,73.80820833,10475.59222,236.2014008,221.1399994,2.599999905,17.10000038,,,,,,,,,,,,,,,,,
109.830923,20.84135,73.80671667,10475.29605,237.0558319,221.0899963,2.599999905,17.10000038,,,,,,,,,,,,,,,,,
110.8334597,20.83974,73.805225,10474.99989,236.6893463,221.0500031,2.599999905,17.20000076,,,,,,,,,,,,,,,,,
111.8303966,20.83813,73.80373333,10475.30373,236.4798584,221.0700073,2.599999905,17.10000038,,,,,,,,,,,,,,,,,
112.8316739,20.83652,73.80224167,10475.20756,236.5694275,221.1600037,2.599999905,17.70000076,,,,,,,,,,,,,,,,,
113.8338188,20.83491333,73.800745,10474.01137,236.5658112,221.1699982,2.599999905,18.29999924,,,,,,,,,,,,,,,,,
114.8290519,20.83330667,73.79925,10473.91519,236.5493469,221.1699982,2.599999905,19.20000076,,,,,,,,,,,,,,,,,
115.8301015,20.83170167,73.797755,10473.31899,236.5869293,221.1199951,2.599999905,17.60000038,,,,,,,,,,,,,,,,,
116.8306163,20.830095,73.79625667,10473.0228,236.9539185,221.1000061,2.599999905,17.5,,,,,,,,,,,,,,,,,
117.8308339,20.828485,73.79476167,10474.02662,236.4551544,221.1499939,2.599999905,17.29999924,,,,,,,,,,,,,,,,,
118.8311701,20.82688167,73.793265,10473.83041,236.4258118,221.2599945,2.599999905,17.29999924,,,,,,,,,,,,,,,,,
119.8336344,20.82528167,73.79177167,10473.33419,236.1401367,221.1499939,2.700000048,16.89999962,,,,,,,,,,,,,,,,,
120.8290674,20.82367667,73.79028,10472.43799,236.4860382,221.1600037,2.599999905,17.0,,,,,,,,,,,,,,,,,
121.8306172,20.82207,73.78878667,10472.5418,236.4711151,221.1300049,2.599999905,17.60000038,,,,,,,,,,,,,,,,,
122.8314043,20.820465,73.78729167,10473.14559,236.6286163,221.1499939,2.599999905,18.29999924,,,,,,,,,,,,,,,,,
123.8304212,20.818865,73.78579667,10475.04936,235.9620514,221.1600037,2.599999905,17.60000038,,,,,,,,,,,,,,,,,
124.8309387,20.81726167,73.784305,10474.65315,236.2960968,221.2899933,2.599999905,16.39999962,,,,,,,,,,,,,,,,,
125.8328845,20.81565667,73.78281,10474.55694,236.8041382,221.1199951,2.5,16.5,,,,,,,,,,,,,,,,,
126.8291637,20.81404333,73.78131833,10475.06076,236.8283234,221.0899963,2.599999905,18.10000038,,,,,,,,,,,,,,,,,
127.8301382,20.81243667,73.779825,10475.16455,236.0258789,221.0899963,2.599999905,19.20000076,,,,,,,,,,,,,,,,,
128.8315842,20.81083333,73.77833667,10474.66833,236.2873535,221.0899963,2.700000048,17.79999924,,,,,,,,,,,,,,,,,
129.8300738,20.80922667,73.776845,10473.67212,236.8870087,221.0899963,2.700000048,17.20000076,,,,,,,,,,,,,,,,,
130.8310845,20.80761333,73.77535,10473.97593,236.7747955,221.1999969,2.700000048,16.70000076,,,,,,,,,,,,,,,,,
131.8331375,20.80600667,73.77385667,10474.97971,236.4047089,221.2299957,2.700000048,16.29999924,,,,,,,,,,,,,,,,,
132.8294375,20.80440167,73.772365,10475.28349,236.5781708,221.1799927,2.700000048,16.89999962,,,,,,,,,,,,,,,,,
133.82994,20.80279667,73.770875,10475.48727,236.699646,221.1300049,2.700000048,16.79999924,,,,,,,,,,,,,,,,,
134.8300797,20.80118833,73.76938667,10474.99106,236.5066223,220.9900055,2.700000048,16.5,,,,,,,,,,,,,,,,,
135.8299619,20.79957833,73.76789333,10475.09485,237.1036987,220.9600067,2.700000048,16.60000038,,,,,,,,,,,,,,,,,
136.8310539,20.79797167,73.76640167,10475.09863,236.9765625,221.0800018,2.799999952,16.70000076,,,,,,,,,,,,,,,,,
137.8325885,20.79636833,73.76490833,10475.20239,236.2214661,221.2200012,2.700000048,17.29999924,,,,,,,,,,,,,,,,,
138.828952,20.794765,73.76341667,10475.10615,236.0150604,221.1699982,2.700000048,18.20000076,,,,,,,,,,,,,,,,,
139.8309489,20.79315667,73.76192833,10474.60993,236.4335327,221.0200043,2.700000048,18.79999924,,,,,,,,,,,,,,,,,
140.8306769,20.79154333,73.76043333,10475.91372,236.2611084,221.1900024,2.700000048,18.79999924,,,,,,,,,,,,,,,,,
141.8299791,20.78993833,73.75893667,10476.71748,236.735672,221.1300049,2.599999905,18.39999962,,,,,,,,,,,,,,,,,
142.8305043,20.78833,73.75744167,10477.62124,236.7521515,221.1699982,2.599999905,18.39999962,,,,,,,,,,,,,,,,,
143.8317483,20.78672833,73.75594833,10477.12499,236.5375061,221.0200043,2.599999905,18.79999924,,,,,,,,,,,,,,,,,
144.8290634,20.78512,73.75445667,10478.82876,236.888031,221.0299988,2.599999905,19.5,,,,,,,,,,,,,,,,,
145.8315252,20.78351333,73.75296,10478.23251,236.9729614,221.1399994,2.599999905,20.29999924,,,,,,,,,,,,,,,,,
146.8303602,20.78190167,73.75147167,10478.43629,236.4587555,220.9299927,2.599999905,20.29999924,,,,,,,,,,,,,,,,,
147.8305394,20.78029333,73.74999333,10477.54007,235.8874207,221.0399933,2.599999905,20.89999962,,,,,,,,,,,,,,,,,
148.8310237,20.77868667,73.748495,10476.64382,237.4640045,220.9400024,2.599999905,21.20000076,,,,,,,,,,,,,,,,,
149.8339951,20.77707333,73.74700333,10476.64759,237.0867157,221.2599945,2.599999905,20.0,,,,,,,,,,,,,,,,,
150.8304372,20.775465,73.74550333,10476.25134,237.3502502,221.1799927,2.599999905,16.29999924,,,,,,,,,,,,,,,,,
151.8311375,20.77385667,73.74400667,10476.15509,237.3116455,221.25,2.599999905,15.80000019,,,,,,,,,,,,,,,,,
152.8321535,20.77224833,73.74251,10476.35884,237.3456268,221.0700073,2.700000048,16.39999962,,,,,,,,,,,,,,,,,
153.8302156,20.770635,73.74101333,10475.3626,237.5823975,221.1999969,2.700000048,17.20000076,,,,,,,,,,,,,,,,,
154.8321019,20.76903,73.739515,10474.06633,237.1407623,221.1999969,2.700000048,17.89999962,,,,,,,,,,,,,,,,,
155.8325661,20.76742667,73.73802,10472.47006,236.9997253,221.1300049,2.599999905,18.39999962,,,,,,,,,,,,,,,,,
156.8300753,20.76581667,73.73652333,10471.1738,237.5849762,221.0899963,2.599999905,19.0,,,,,,,,,,,,,,,,,
157.8313111,20.76420667,73.73503,10469.27755,237.1119385,221.1699982,2.599999905,20.0,,,,,,,,,,,,,,,,,
158.8316233,20.76260167,73.73353,10467.98127,237.1119385,221.1000061,2.599999905,18.89999962,,,,,,,,,,,,,,,,,
159.830348,20.760995,73.73203167,10466.285,237.0949554,221.0700073,2.599999905,18.89999962,,,,,,,,,,,,,,,,,
160.8321329,20.75938833,73.730535,10463.98872,237.1165771,221.1399994,2.599999905,18.10000038,,,,,,,,,,,,,,,,,
161.8318738,20.75778,73.72903833,10461.49245,237.1515656,221.0800018,2.599999905,18.5,,,,,,,,,,,,,,,,,
162.8293978,20.75616833,73.72754333,10458.4962,237.2385559,221.1000061,2.599999905,18.89999962,,,,,,,,,,,,,,,,,
163.8309299,20.75455667,73.72604667,10455.09993,237.236496,221.1499939,2.599999905,19.79999924,,,,,,,,,,,,,,,,,
164.8311387,20.752945,73.72455333,10451.30368,237.2684174,221.0700073,2.599999905,20.0,,,,,,,,,,,,,,,,,
165.8299135,20.75133167,73.72305667,10447.10742,237.2328949,221.1300049,2.599999905,20.20000076,,,,,,,,,,,,,,,,,
166.8309821,20.74971833,73.72156333,10442.21116,237.1968689,221.1199951,2.599999905,19.29999924,,,,,,,,,,,,,,,,,
167.831491,20.74810667,73.72006833,10437.91489,237.3626099,221.1499939,2.599999905,19.0,,,,,,,,,,,,,,,,,
168.8294744,20.746495,73.71857333,10432.21862,237.7090149,221.1399994,2.599999905,18.70000076,,,,,,,,,,,,,,,,,
169.8314957,20.74488167,73.71707833,10427.22236,236.7886963,221.0800018,2.599999905,18.39999962,,,,,,,,,,,,,,,,,
170.8327077,20.74326833,73.715585,10422.72609,237.1551819,221.1100006,2.599999905,18.70000076,,,,,,,,,,,,,,,,,
171.8306849,20.74165833,73.71408833,10417.32981,237.1500244,221.25,2.599999905,18.70000076,,,,,,,,,,,,,,,,,
172.8308037,20.74004833,73.71259167,10412.23353,237.1845093,221.0399933,2.599999905,18.79999924,,,,,,,,,,,,,,,,,
173.8328828,20.73843667,73.71110167,10407.73726,237.0105438,221.1399994,2.599999905,18.89999962,,,,,,,,,,,,,,,,,
174.8279932,20.736825,73.70960833,10403.34098,237.0923767,221.1600037,2.599999905,19.20000076,,,,,,,,,,,,,,,,,
175.8306584,20.73521667,73.708115,10398.04469,236.7994995,221.2100067,2.599999905,18.39999962,,,,,,,,,,,,,,,,,
176.8301301,20.73361,73.70661833,10392.54838,237.2349548,221.3099976,2.599999905,17.79999924,,,,,,,,,,,,,,,,,
177.8297273,20.73200167,73.705125,10386.85209,236.899353,221.2100067,2.599999905,18.0,,,,,,,,,,,,,,,,,
178.8312532,20.73039167,73.70363333,10380.9558,237.0512085,221.2100067,2.599999905,17.70000076,,,,,,,,,,,,,,,,,
179.8328002,20.72878167,73.70214333,10375.85951,236.8226624,221.2200012,2.599999905,17.0,,,,,,,,,,,,,,,,,
180.8296636,20.72717167,73.70065,10371.26322,237.0038452,221.1999969,2.599999905,17.20000076,,,,,,,,,,,,,,,,,
181.8300904,20.72556,73.69916,10366.66693,236.7042847,221.2100067,2.5,17.0,,,,,,,,,,,,,,,,,
182.83122,20.723955,73.69766667,10361.67062,236.6718445,221.2400055,2.5,17.39999962,,,,,,,,,,,,,,,,,
183.8292735,20.72234833,73.69618167,10356.17431,236.1499176,221.1600037,2.5,17.60000038,,,,,,,,,,,,,,,,,
184.8325402,20.72074333,73.69469667,10351.77801,236.7253876,221.1499939,2.5,18.0,,,,,,,,,,,,,,,,,
185.8317046,20.71914,73.69320833,10346.78168,235.9265289,221.2200012,2.400000095,18.60000038,,,,,,,,,,,,,,,,,
186.828235,20.71753667,73.69172167,10340.88536,236.4165497,221.1900024,2.400000095,18.5,,,,,,,,,,,,,,,,,
187.8300388,20.71593333,73.69023167,10334.58904,236.4247894,221.3000031,2.400000095,18.5,,,,,,,,,,,,,,,,,
188.8308126,20.71433167,73.68874167,10328.6927,236.0866089,221.1799927,2.400000095,18.5,,,,,,,,,,,,,,,,,
189.8297342,20.71273167,73.68725167,10322.89636,236.5519257,221.2100067,2.400000095,17.60000038,,,,,,,,,,,,,,,,,
190.830927,20.71112833,73.68576,10316.70003,236.1669159,221.3099976,2.400000095,17.60000038,,,,,,,,,,,,,,,,,
191.8319286,20.709525,73.68427,10310.50369,236.4397125,221.1199951,2.400000095,17.5,,,,,,,,,,,,,,,,,
192.8282307,20.70792,73.68278,10305.20736,236.4325104,221.1600037,2.400000095,17.70000076,,,,,,,,,,,,,,,,,
193.8309673,20.70631667,73.68129,10300.11103,236.3516998,221.1699982,2.400000095,17.89999962,,,,,,,,,,,,,,,,,
194.830104,20.70471333,73.67979833,10294.51469,236.5951538,221.1000061,2.400000095,18.0,,,,,,,,,,,,,,,,,
195.8302225,20.70310833,73.67830833,10289.61835,236.5771484,221.1799927,2.400000095,18.10000038,,,,,,,,,,,,,,,,,
196.8324006,20.701505,73.676815,10284.022,236.3105164,221.1900024,2.400000095,17.60000038,,,,,,,,,,,,,,,,,
197.8336587,20.69989667,73.675325,10277.92568,236.6244965,221.0700073,2.400000095,17.29999924,,,,,,,,,,,,,,,,,
198.8277899,20.69828667,73.67383333,10273.12935,236.6033936,221.0899963,2.400000095,17.60000038,,,,,,,,,,,,,,,,,
199.8292994,20.69667667,73.67234167,10268.53302,236.6955261,220.9900055,2.400000095,17.5,,,,,,,,,,,,,,,,,
200.8314188,20.69506333,73.67085333,10261.53671,236.7011871,221.1000061,2.400000095,17.5,,,,,,,,,,,,,,,,,
201.8314345,20.69345667,73.669355,10256.54036,236.66362,221.1699982,2.5,18.29999924,,,,,,,,,,,,,,,,,
202.8317341,20.69185167,73.66785833,10250.744,236.6764832,221.3300018,2.5,18.79999924,,,,,,,,,,,,,,,,,
203.8312467,20.69024,73.66636,10247.54766,236.9029541,221.2799988,2.299999952,17.20000076,,,,,,,,,,,,,,,,,
204.8279969,20.68863333,73.66486167,10241.25131,236.7444305,221.1000061,2.299999952,17.0,,,,,,,,,,,,,,,,,
205.8294597,20.687025,73.663365,10236.65496,236.741333,221.1799927,2.299999952,16.29999924,,,,,,,,,,,,,,,,,
206.8307359,20.68541667,73.66186667,10232.7586,236.5215454,221.2100067,2.299999952,15.30000019,,,,,,,,,,,,,,,,,
207.8296196,20.68381667,73.66036833,10225.86222,236.4937592,221.4199982,2.400000095,15.69999981,,,,,,,,,,,,,,,,,
208.8312,20.68221333,73.658865,10219.86584,237.6256256,221.2899933,2.400000095,16.5,,,,,,,,,,,,,,,,,
209.8318782,20.680605,73.657365,10213.16947,237.3729095,221.2599945,2.400000095,16.79999924,,,,,,,,,,,,,,,,,
210.82822,20.67899833,73.65587,10204.67311,236.4016266,221.1799927,2.299999952,16.70000076,,,,,,,,,,,,,,,,,
211.8301113,20.67738833,73.65437167,10199.57675,237.634903,221.2700043,2.299999952,16.0,,,,,,,,,,,,,,,,,
212.8305082,20.67577667,73.65287333,10192.8804,237.1124573,221.1600037,2.400000095,17.60000038,,,,,,,,,,,,,,,,,
213.82998,20.67417,73.65138,10183.58403,236.6085358,221.1799927,2.400000095,18.0,,,,,,,,,,,,,,,,,
214.8306492,20.67255833,73.64988333,10175.98767,237.6189423,221.1300049,2.400000095,18.0,,,,,,,,,,,,,,,,,
215.8331456,20.67094167,73.64838667,10167.99133,237.7409363,221.0700073,2.5,18.20000076,,,,,,,,,,,,,,,,,
216.8298882,20.66932667,73.64689167,10159.69499,237.0146637,221.0399933,2.5,16.89999962,,,,,,,,,,,,,,,,,
217.8299252,20.66771,73.64539667,10151.09865,237.6168823,221.0,2.5,17.0,,,,,,,,,,,,,,,,,
218.830624,20.66609167,73.64390333,10143.70231,237.9118195,220.9799957,2.400000095,16.29999924,,,,,,,,,,,,,,,,,
219.8299612,20.66447667,73.64240667,10135.10596,237.2406158,221.1499939,2.400000095,15.69999981,,,,,,,,,,,,,,,,,
220.8311172,20.66286167,73.64090667,10126.3096,237.7532806,221.1699982,2.400000095,16.20000076,,,,,,,,,,,,,,,,,
221.8318068,20.66124667,73.639405,10117.61323,238.2520447,221.1399994,2.400000095,17.0,,,,,,,,,,,,,,,,,
222.8286665,20.65963333,73.637905,10109.21686,237.5731354,221.0899963,2.400000095,17.20000076,,,,,,,,,,,,,,,,,
223.8307575,20.658025,73.63640833,10098.02048,237.4516602,221.0800018,2.299999952,18.29999924,,,,,,,,,,,,,,,,,
224.8308249,20.656415,73.63491167,10088.0241,237.8433533,221.0399933,2.299999952,18.29999924,,,,,,,,,,,,,,,,,
225.8295972,20.65479667,73.633415,10078.52775,237.7347565,221.0500031,2.299999952,17.89999962,,,,,,,,,,,,,,,,,
226.8321326,20.65318,73.63192,10069.23139,237.6225433,221.1100006,2.299999952,17.60000038,,,,,,,,,,,,,,,,,
227.8332994,20.65156333,73.630425,10060.53503,237.4629822,221.0700073,2.400000095,17.89999962,,,,,,,,,,,,,,,,,
228.8285861,20.64994667,73.62893167,10051.03867,237.4439392,221.1399994,2.400000095,18.79999924,,,,,,,,,,,,,,,,,
229.8305384,20.64833333,73.62743333,10042.14229,237.640564,221.1300049,2.400000095,19.60000038,,,,,,,,,,,,,,,,,
230.8313419,20.646715,73.62593667,10033.54592,237.9797668,221.0599976,2.5,19.29999924,,,,,,,,,,,,,,,,,
231.8300276,20.645095,73.62444,10025.14957,237.7316589,221.0899963,2.5,20.0,,,,,,,,,,,,,,,,,
232.8304394,20.64347667,73.62294167,10017.4532,237.8721771,221.0800018,2.5,20.79999924,,,,,,,,,,,,,,,,,
233.8339446,20.64186,73.62144667,10009.75683,237.7007751,221.0700073,2.5,19.70000076,,,,,,,,,,,,,,,,,
234.8285259,20.640235,73.619955,9998.860485,238.2412415,221.0299988,2.400000095,19.39999962,,,,,,,,,,,,,,,,,
235.8312978,20.63862167,73.61845667,9990.764094,237.7975464,221.0200043,2.400000095,19.29999924,,,,,,,,,,,,,,,,,
236.8305834,20.637,73.61696167,9982.367734,238.1274872,220.9299927,2.5,19.10000038,,,,,,,,,,,,,,,,,
237.8291932,20.63537333,73.615465,9973.771387,238.7477264,220.9600067,2.5,19.60000038,,,,,,,,,,,,,,,,,
238.8296939,20.633745,73.61396833,9965.575043,237.9782104,220.9499969,2.599999905,19.5,,,,,,,,,,,,,,,,,
239.8309172,20.63212,73.61247333,9957.478689,237.1284027,221.1999969,2.700000048,20.5,,,,,,,,,,,,,,,,,
240.8283185,20.6305,73.61097833,9949.482316,238.2149811,221.1600037,2.799999952,20.10000038,,,,,,,,,,,,,,,,,
241.830224,20.62887667,73.60948,9941.885948,238.4239655,221.1699982,2.700000048,19.39999962,,,,,,,,,,,,,,,,,
242.8298393,20.62725667,73.60797833,9934.589562,238.2180786,221.1600037,2.700000048,19.60000038,,,,,,,,,,,,,,,,,
243.8296486,20.62563333,73.60647667,9927.793186,238.6349945,221.0,2.700000048,19.39999962,,,,,,,,,,,,,,,,,
244.8297716,20.62400833,73.60497333,9919.596811,239.2012024,221.1199951,2.700000048,20.20000076,,,,,,,,,,,,,,,,,
245.830895,20.62240333,73.60346,9918.300354,238.6967621,221.0899963,2.5,19.39999962,,,,,,,,,,,,,,,,,
246.8281837,20.62078167,73.60195833,9911.103966,238.6653748,221.0700073,2.5,20.20000076,,,,,,,,,,,,,,,,,
247.8297621,20.61914333,73.600465,9903.507645,239.0905304,221.0099945,2.5,20.5,,,,,,,,,,,,,,,,,
248.8308762,20.61751667,73.59896667,9896.411275,238.9443512,220.9100037,2.599999905,20.70000076,,,,,,,,,,,,,,,,,
249.83014,20.615885,73.59746667,9888.614918,240.1266632,220.9900055,2.599999905,21.0,,,,,,,,,,,,,,,,,
250.8313673,20.61425667,73.59595833,9882.418538,239.1054535,221.1000061,2.599999905,20.29999924,,,,,,,,,,,,,,,,,
251.8312686,20.61262333,73.59445667,9874.122181,240.2239532,220.9799957,2.599999905,20.20000076,,,,,,,,,,,,,,,,,
252.8281393,20.61098667,73.592955,9866.225833,239.7890167,220.9199982,2.599999905,19.70000076,,,,,,,,,,,,,,,,,
253.8305006,20.60935,73.59145,9858.82948,240.3341064,220.9400024,2.599999905,20.10000038,,,,,,,,,,,,,,,,,
254.8302899,20.60771,73.58994167,9851.833131,240.9790497,220.8600006,2.599999905,20.5,,,,,,,,,,,,,,,,,
255.8295314,20.60607,73.58843167,9844.636779,240.4931488,220.8899994,2.599999905,22.60000038,,,,,,,,,,,,,,,,,
256.8312637,20.60443167,73.58692167,9836.740419,240.4777069,221.0099945,2.599999905,22.20000076,,,,,,,,,,,,,,,,,
257.8319576,20.60279167,73.58540667,9828.944056,241.1875153,220.9400024,2.599999905,20.60000038,,,,,,,,,,,,,,,,,
258.8295372,20.601145,73.58389167,9820.347714,241.0485382,220.8099976,2.599999905,20.5,,,,,,,,,,,,,,,,,
259.8311499,20.59950167,73.58237667,9811.851359,241.3141327,220.9499969,2.599999905,21.29999924,,,,,,,,,,,,,,,,,
260.8312252,20.597855,73.58086167,9802.655013,241.7264252,220.9799957,2.599999905,21.20000076,,,,,,,,,,,,,,,,,
261.8299738,20.59621167,73.579345,9794.958652,240.6547699,220.9499969,2.599999905,21.29999924,,,,,,,,,,,,,,,,,
262.8302322,20.594565,73.57783333,9786.862307,241.9014282,220.7400055,2.599999905,21.89999962,,,,,,,,,,,,,,,,,
263.8336953,20.592935,73.57631333,9777.465892,241.1952362,221.0700073,2.400000095,21.29999924,,,,,,,,,,,,,,,,,
264.8294018,20.59130333,73.574795,9768.569483,241.1854553,221.0800018,2.400000095,15.60000038,,,,,,,,,,,,,,,,,
265.8304935,20.58966167,73.57328333,9760.773115,241.5447235,220.8000031,2.299999952,15.60000038,,,,,,,,,,,,,,,,,
266.8305599,20.58801167,73.57177167,9753.176773,241.7130432,220.6300049,2.299999952,15.69999981,,,,,,,,,,,,,,,,,
267.8298532,20.58636333,73.57026167,9744.080426,241.5884705,220.9400024,2.299999952,15.30000019,,,,,,,,,,,,,,,,,
268.8315009,20.584715,73.56875167,9734.884078,241.1236877,221.0800018,2.299999952,15.19999981,,,,,,,,,,,,,,,,,
269.8333252,20.58307667,73.56723667,9723.387686,241.4762726,221.1399994,2.299999952,16.0,,,,,,,,,,,,,,,,,
270.8295609,20.58144333,73.56571833,9710.091272,241.1262512,221.1499939,2.299999952,16.5,,,,,,,,,,,,,,,,,
271.8305646,20.5798,73.5642,9700.494889,241.7217865,221.0299988,2.400000095,18.0,,,,,,,,,,,,,,,,,
272.830492,20.578155,73.56268,9691.498508,241.1797943,220.9299927,2.5,18.79999924,,,,,,,,,,,,,,,,,
273.8302785,20.57652,73.56116667,9681.5021,240.3016663,221.0200043,2.5,19.5,,,,,,,,,,,,,,,,,
274.8309596,20.57488333,73.55965,9672.505691,241.6914215,221.1999969,2.599999905,19.39999962,,,,,,,,,,,,,,,,,
275.8327563,20.57325333,73.55813167,9664.209256,241.2338409,221.1600037,2.5,18.79999924,,,,,,,,,,,,,,,,,
276.8296963,20.57161333,73.55661667,9654.212857,241.2533875,221.0500031,2.599999905,19.10000038,,,,,,,,,,,,,,,,,
277.8306966,20.56997667,73.55509833,9645.91644,241.4628906,221.0299988,2.599999905,19.79999924,,,,,,,,,,,,,,,,,
278.8303791,20.56833667,73.55358,9637.420033,241.4263458,221.1000061,2.599999905,18.5,,,,,,,,,,,,,,,,,
279.8299468,20.56669667,73.55205333,9629.323613,242.0970306,221.1499939,2.599999905,19.10000038,,,,,,,,,,,,,,,,,
280.830883,20.56504833,73.55054,9621.327237,240.9394073,221.0200043,2.700000048,19.89999962,,,,,,,,,,,,,,,,,
281.8321839,20.56340833,73.54902,9612.230821,241.3836212,221.0800018,2.799999952,21.0,,,,,,,,,,,,,,,,,
282.8288772,20.561765,73.54749833,9604.034413,241.5354614,221.1000061,2.900000095,21.79999924,,,,,,,,,,,,,,,,,
283.8313517,20.56012333,73.54598,9594.738002,241.8365784,221.0399933,2.799999952,22.10000038,,,,,,,,,,,,,,,,,
284.8309059,20.55848,73.54446333,9585.941597,242.225708,221.0899963,2.799999952,22.10000038,,,,,,,,,,,,,,,,,
285.8296662,20.55683833,73.54294333,9578.74518,241.5184784,221.0899963,2.799999952,21.0,,,,,,,,,,,,,,,,,
286.832772,20.55519833,73.54142667,9571.54876,241.3635406,221.1600037,2.799999952,21.0,,,,,,,,,,,,,,,,,
287.8325437,20.55356333,73.539905,9564.152314,241.0191956,221.25,2.700000048,21.60000038,,,,,,,,,,,,,,,,,
288.828756,20.55193167,73.53838333,9557.355855,241.1092682,221.1499939,2.700000048,23.39999962,,,,,,,,,,,,,,,,,
289.8332212,20.55029167,73.53686667,9549.959429,241.4798737,220.9799957,2.700000048,21.39999962,,,,,,,,,,,,,,,,,
290.8317428,20.54865167,73.535345,9543.162994,241.450531,221.2400055,2.700000048,21.20000076,,,,,,,,,,,,,,,,,
291.8301262,20.54701,73.53382667,9535.166568,241.1159668,221.1699982,2.700000048,21.20000076,,,,,,,,,,,,,,,,,
292.8314221,20.54536667,73.53231,9527.770147,241.4330292,221.0399933,2.700000048,21.10000038,,,,,,,,,,,,,,,,,
293.8321089,20.543725,73.53078833,9521.473712,241.8674622,221.0099945,2.599999905,20.29999924,,,,,,,,,,,,,,,,,
294.8286987,20.54208,73.52926833,9514.177289,241.8751831,221.0299988,2.599999905,20.89999962,,,,,,,,,,,,,,,,,
295.8306322,20.54043667,73.527745,9507.180854,242.5041656,221.1900024,2.599999905,20.29999924,,,,,,,,,,,,,,,,,
296.8328144,20.53879167,73.52622,9498.984421,241.6672363,221.0500031,2.599999905,20.20000076,,,,,,,,,,,,,,,,,
297.830023,20.53714833,73.52469833,9490.987984,241.6420135,220.9499969,2.599999905,20.0,,,,,,,,,,,,,,,,,
298.8334239,20.535515,73.52317167,9484.991505,241.4366302,221.1900024,2.599999905,19.20000076,,,,,,,,,,,,,,,,,
299.8343329,20.533875,73.521645,9477.295046,241.8690033,221.1799927,2.599999905,18.89999962,,,,,,,,,,,,,,,,,
300.8294649,20.53223167,73.520125,9469.398606,241.4870758,221.1399994,2.599999905,19.10000038,,,,,,,,,,,,,,,,,
301.8307519,20.530585,73.51860667,9461.102178,241.9575348,220.9600067,2.599999905,19.5,,,,,,,,,,,,,,,,,
302.8313427,20.52894,73.51708333,9452.705735,241.6955414,221.0700073,2.599999905,18.89999962,,,,,,,,,,,,,,,,,
303.8331793,20.52730167,73.51556,9445.809267,241.787674,221.1600037,2.599999905,19.5,,,,,,,,,,,,,,,,,
304.8332024,20.52566333,73.514035,9437.412796,241.4062653,221.2400055,2.599999905,20.0,,,,,,,,,,,,,,,,,
305.8324449,20.52402167,73.51251333,9428.716338,241.2796478,221.1199951,2.599999905,20.20000076,,,,,,,,,,,,,,,,,
306.828999,20.52238,73.51099167,9421.119878,241.4690552,221.1799927,2.599999905,19.89999962,,,,,,,,,,,,,,,,,
307.8303215,20.52073667,73.50947167,9412.723425,241.2117004,221.1499939,2.5,20.60000038,,,,,,,,,,,,,,,,,
308.8310582,20.51909,73.50795167,9403.62698,242.0342255,221.1300049,2.599999905,20.5,,,,,,,,,,,,,,,,,
309.8300843,20.51744333,73.50643167,9395.230534,241.6867828,221.1300049,2.5,21.0,,,,,,,,,,,,,,,,,
310.8316818,20.51580333,73.50491167,9387.634064,240.9286041,221.1300049,2.599999905,20.29999924,,,,,,,,,,,,,,,,,
311.8326019,20.51415833,73.50339833,9378.337617,241.6090698,221.0899963,2.599999905,20.20000076,,,,,,,,,,,,,,,,,
312.830571,20.51251167,73.50188167,9369.841169,241.3748627,221.0800018,2.599999905,20.79999924,,,,,,,,,,,,,,,,,
313.8301587,20.51086833,73.500365,9361.944708,241.5138397,221.0200043,2.599999905,20.89999962,,,,,,,,,,,,,,,,,
314.8321276,20.50923667,73.49884667,9351.24746,241.254425,220.8999939,2.400000095,18.60000038,,,,,,,,,,,,,,,,,
315.8333846,20.5076,73.49732667,9346.149989,240.9353027,221.0599976,2.400000095,18.20000076,,,,,,,,,,,,,,,,,
316.8323132,20.505965,73.49580667,9340.152513,241.0989838,221.1999969,2.299999952,18.70000076,,,,,,,,,,,,,,,,,
317.8321096,20.50432667,73.49429,9330.855054,241.1205902,220.9900055,2.299999952,18.20000076,,,,,,,,,,,,,,,,,
318.831199,20.50268833,73.49277667,9322.557601,240.5456543,221.0099945,2.200000048,18.70000076,,,,,,,,,,,,,,,,,
319.8311922,20.50105167,73.491265,9312.060146,240.5600586,220.9900055,2.200000048,18.79999924,,,,,,,,,,,,,,,,,
320.830531,20.49940833,73.48975667,9304.863256,240.4421844,220.8999939,2.200000048,17.29999924,,,,,,,,,,,,,,,,,
321.8310437,20.497765,73.48825167,9296.867328,240.2095337,220.8999939,2.299999952,18.0,,,,,,,,,,,,,,,,,
322.8307117,20.49612333,73.486745,9287.871391,239.6876068,221.0500031,3.0,16.10000038,,,,,,,,,,,,,,,,,
323.831715,20.494505,73.48522333,9280.275328,239.6716461,221.0099945,3.099999905,15.5,,,,,,,,,,,,,,,,,
324.8322286,20.49288167,73.48371,9271.379305,239.7081909,221.2599945,3.0,16.29999924,,,,,,,,,,,,,,,,,
325.830419,20.49125667,73.48218833,9260.783275,239.811142,221.2899933,2.900000095,17.20000076,,,,,,,,,,,,,,,,,
326.8304682,20.48963,73.480675,9250.287272,239.1054535,220.9499969,2.799999952,17.5,,,,,,,,,,,,,,,,,
327.8317236,20.488,73.47917167,9240.091306,239.1363373,221.0899963,2.799999952,18.20000076,,,,,,,,,,,,,,,,,
328.8305636,20.48637333,73.47766833,9229.595328,239.0982513,220.8699951,2.700000048,18.60000038,,,,,,,,,,,,,,,,,
329.8334465,20.48473833,73.47617167,9216.799402,238.7786102,220.8200073,2.700000048,19.20000076,,,,,,,,,,,,,,,,,
330.8306905,20.48310667,73.47468333,9203.00348,239.1095734,220.9299927,2.599999905,19.5,,,,,,,,,,,,,,,,,
331.8297468,20.48147667,73.47318333,9189.107531,239.5321655,220.8699951,2.599999905,19.70000076,,,,,,,,,,,,,,,,,
332.8326387,20.479845,73.47168167,9176.411589,239.4204712,220.8899994,2.5,17.60000038,,,,,,,,,,,,,,,,,
333.8321225,20.47821,73.47018667,9162.315677,238.8712616,220.8699951,2.400000095,16.89999962,,,,,,,,,,,,,,,,,
334.8300716,20.47658167,73.46869167,9149.519738,238.3966827,220.8699951,2.400000095,16.5,,,,,,,,,,,,,,,,,
335.8319089,20.47495333,73.46719333,9140.523796,238.6082306,220.8200073,2.299999952,15.39999962,,,,,,,,,,,,,,,,,
336.8308252,20.47333,73.465695,9129.527835,237.868576,221.0599976,2.299999952,15.30000019,,,,,,,,,,,,,,,,,
337.8303519,20.47171,73.4642,9114.331869,238.0559387,221.0099945,2.299999952,14.39999962,,,,,,,,,,,,,,,,,
338.8299095,20.47009167,73.46270333,9097.435896,237.6982117,221.1000061,2.400000095,14.60000038,,,,,,,,,,,,,,,,,
339.8336796,20.46847667,73.46120167,9080.0399,237.6662903,220.9299927,3.0,15.5,,,,,,,,,,,,,,,,,
340.8307797,20.46685667,73.45971167,9060.743952,237.7553406,220.8300018,2.900000095,15.30000019,,,,,,,,,,,,,,,,,
341.8312157,20.465235,73.458225,9040.64802,237.7306366,220.9299927,2.799999952,15.80000019,,,,,,,,,,,,,,,,,
342.8300236,20.46361667,73.45673333,9020.652067,237.9437256,220.8200073,2.799999952,16.79999924,,,,,,,,,,,,,,,,,
343.8300231,20.462,73.45523333,9000.356093,238.1949158,221.1300049,2.799999952,17.79999924,,,,,,,,,,,,,,,,,
344.8302674,20.46038167,73.453735,8978.560132,238.0502777,221.0599976,2.700000048,17.39999962,,,,,,,,,,,,,,,,,
345.8325594,20.45876167,73.45223667,8956.164181,238.147049,221.0200043,2.700000048,16.20000076,,,,,,,,,,,,,,,,,
346.8304009,20.45714167,73.45074167,8932.868239,238.2927094,221.0800018,2.599999905,16.5,,,,,,,,,,,,,,,,,
347.8317883,20.45551833,73.449245,8909.772311,238.3796997,221.0500031,2.599999905,17.0,,,,,,,,,,,,,,,,,
348.8307021,20.453895,73.44774833,8886.076385,238.7014008,221.0,2.599999905,16.89999962,,,,,,,,,,,,,,,,,
349.8317868,20.452265,73.44625167,8862.480491,239.0565643,220.9400024,2.5,17.29999924,,,,,,,,,,,,,,,,,
350.8310763,20.450635,73.44475333,8840.184597,239.0447235,221.0200043,2.5,17.60000038,,,,,,,,,,,,,,,,,
351.8321904,20.44899,73.44326,8820.188779,239.3020782,220.9199982,2.400000095,16.20000076,,,,,,,,,,,,,,,,,
352.8324818,20.44735833,73.44176167,8800.192897,239.4539185,220.9499969,2.400000095,16.0,,,,,,,,,,,,,,,,,
353.8319668,20.44572,73.44027167,8777.697063,239.5841522,220.8000031,2.299999952,15.60000038,,,,,,,,,,,,,,,,,
354.8309993,20.444085,73.43877667,8759.501207,239.426651,220.8600006,2.200000048,14.30000019,,,,,,,,,,,,,,,,,
355.8309939,20.44245833,73.43727333,8741.205302,239.5419464,221.0500031,2.200000048,14.0,,,,,,,,,,,,,,,,,
356.8329462,20.44083,73.43577167,8724.90941,239.2135468,220.9700012,2.200000048,13.80000019,,,,,,,,,,,,,,,,,
357.8331185,20.43920333,73.43427167,8711.313517,238.8903046,221.0,2.299999952,14.80000019,,,,,,,,,,,,,,,,,
358.8331972,20.43757667,73.43277667,8697.617636,238.4867554,220.8500061,2.299999952,15.10000038,,,,,,,,,,,,,,,,,
359.8338679,20.435955,73.43128167,8686.021736,238.2932281,221.0099945,2.299999952,15.69999981,,,,,,,,,,,,,,,,,
360.8308018,20.434335,73.42978667,8675.425831,237.8340912,220.9400024,2.400000095,15.69999981,,,,,,,,,,,,,,,,,
361.8309344,20.43271833,73.42828833,8667.329909,237.8412933,221.1000061,2.400000095,16.10000038,,,,,,,,,,,,,,,,,
362.8313615,20.43111,73.42678667,8660.333946,237.0944366,221.2100067,2.299999952,15.19999981,,,,,,,,,,,,,,,,,
363.8324086,20.42950167,73.42529833,8651.538013,236.5982513,221.0599976,2.200000048,15.19999981,,,,,,,,,,,,,,,,,
364.8315058,20.42789167,73.423815,8644.242098,236.0907288,220.9900055,2.299999952,15.60000038,,,,,,,,,,,,,,,,,
365.8331677,20.42628667,73.42233667,8637.546175,235.4756317,220.9499969,2.299999952,14.39999962,,,,,,,,,,,,,,,,,
366.8312347,20.424685,73.42085667,8631.250236,235.0937195,221.1399994,2.299999952,14.89999962,,,,,,,,,,,,,,,,,
367.8321093,20.42309333,73.419385,8623.654273,233.7816925,221.0899963,2.299999952,16.10000038,,,,,,,,,,,,,,,,,
368.8306431,20.421505,73.41791333,8616.558298,234.5794983,221.1699982,2.299999952,13.60000038,,,,,,,,,,,,,,,,,
369.8317141,20.419915,73.41643833,8610.162326,233.6586609,221.1100006,2.299999952,13.60000038,,,,,,,,,,,,,,,,,
370.8306566,20.41833333,73.41497,8603.566334,232.1469269,221.2400055,2.299999952,14.19999981,,,,,,,,,,,,,,,,,
371.8317606,20.41675667,73.41350667,8596.370332,232.1438446,221.1999969,2.299999952,15.5,,,,,,,,,,,,,,,,,
372.8312732,20.41518333,73.41204,8592.674312,231.4211731,221.2400055,2.299999952,16.0,,,,,,,,,,,,,,,,,
373.8318846,20.413625,73.41057667,8585.278236,230.6593781,221.3300018,2.200000048,16.60000038,,,,,,,,,,,,,,,,,
374.8308194,20.41206,73.40911667,8578.682198,230.4128265,221.2899933,2.299999952,17.60000038,,,,,,,,,,,,,,,,,
375.8334818,20.4105,73.40766833,8571.786163,229.6253052,221.3300018,2.299999952,18.60000038,,,,,,,,,,,,,,,,,
376.8309265,20.40894333,73.40622167,8564.790119,229.2979431,221.2400055,2.400000095,19.0,,,,,,,,,,,,,,,,,
377.8315323,20.407385,73.40477833,8557.194092,228.6010132,221.1900024,2.400000095,19.20000076,,,,,,,,,,,,,,,,,
378.8319233,20.40583833,73.40333167,8553.19801,228.2705536,221.2700043,2.299999952,16.70000076,,,,,,,,,,,,,,,,,
379.8311061,20.40429167,73.40189667,8546.801953,227.3945007,221.1900024,2.299999952,15.69999981,,,,,,,,,,,,,,,,,
380.8307596,20.40275333,73.400465,8541.005868,226.4808655,221.0800018,2.299999952,15.60000038,,,,,,,,,,,,,,,,,
381.8320169,20.40122167,73.39903667,8535.309764,226.1324005,221.3899994,2.200000048,15.39999962,,,,,,,,,,,,,,,,,
382.8320022,20.39969,73.39760833,8528.613662,226.0196686,221.3500061,2.299999952,14.5,,,,,,,,,,,,,,,,,
383.8334597,20.39817,73.396185,8525.617521,224.2289581,221.2299957,2.200000048,14.39999962,,,,,,,,,,,,,,,,,
384.8318585,20.39665,73.39476833,8524.121396,224.3282928,221.3500061,2.200000048,14.10000038,,,,,,,,,,,,,,,,,
385.8325883,20.395135,73.39335667,8518.625261,222.91745,221.3899994,2.200000048,14.89999962,,,,,,,,,,,,,,,,,
386.8318683,20.39362333,73.39194667,8513.029117,222.926712,221.2700043,2.299999952,15.5,,,,,,,,,,,,,,,,,
387.8320173,20.392115,73.39054333,8507.032974,222.2972107,221.4700012,2.299999952,16.0,,,,,,,,,,,,,,,,,
388.8332058,20.39061667,73.389135,8501.336779,221.7428436,221.4900055,2.299999952,16.39999962,,,,,,,,,,,,,,,,,
389.8319151,20.38911833,73.38773667,8495.040607,220.6763458,221.25,2.299999952,16.89999962,,,,,,,,,,,,,,,,,
390.8315178,20.387625,73.38634667,8488.444431,220.0627899,221.3800049,2.299999952,15.89999962,,,,,,,,,,,,,,,,,
391.8308622,20.386135,73.38495667,8481.748243,220.0252228,221.3200073,2.299999952,16.10000038,,,,,,,,,,,,,,,,,
392.8318375,20.38464667,73.38357167,8475.352059,219.3514557,221.2700043,2.299999952,16.20000076,,,,,,,,,,,,,,,,,
393.8325243,20.38316667,73.38218667,8468.955842,218.804306,221.3699951,2.299999952,16.60000038,,,,,,,,,,,,,,,,,
394.8317616,20.38169,73.38080667,8462.459621,218.1608887,221.3000031,2.299999952,15.60000038,,,,,,,,,,,,,,,,,
395.833391,20.38021833,73.37942833,8456.363385,217.4068298,221.4199982,2.400000095,15.80000019,,,,,,,,,,,,,,,,,
396.8317902,20.37875,73.37805667,8449.767149,216.5693817,221.3500061,2.400000095,16.0,,,,,,,,,,,,,,,,,
397.8306031,20.37727833,73.37669167,8444.570942,216.5467224,221.1999969,2.400000095,15.89999962,,,,,,,,,,,,,,,,,
398.8332919,20.37580333,73.37533167,8438.874762,215.9712677,221.1399994,2.400000095,16.60000038,,,,,,,,,,,,,,,,,
399.8343228,20.37434167,73.37397333,8432.078529,215.1971283,221.2700043,2.299999952,16.10000038,,,,,,,,,,,,,,,,,
400.8338926,20.37288333,73.37261667,8425.482287,214.4940186,221.3000031,2.299999952,16.29999924,,,,,,,,,,,,,,,,,
401.8345393,20.37142167,73.37126667,8418.486074,214.7343903,220.9600067,2.299999952,16.60000038,,,,,,,,,,,,,,,,,
402.8335194,20.36996,73.36992333,8411.789877,214.091507,221.0500031,2.299999952,15.89999962,,,,,,,,,,,,,,,,,
403.8339858,20.36850667,73.36858,8404.793645,212.9313202,221.1199951,2.299999952,16.5,,,,,,,,,,,,,,,,,
404.8332519,20.36707,73.36724,8394.897349,212.7305756,221.1399994,2.299999952,16.60000038,,,,,,,,,,,,,,,,,
405.8324794,20.36562333,73.36590833,8387.301115,211.802536,221.0099945,2.299999952,15.89999962,,,,,,,,,,,,,,,,,
406.8322584,20.36419,73.36458167,8378.604834,211.5770874,221.1499939,2.200000048,16.10000038,,,,,,,,,,,,,,,,,
407.8325009,20.36275167,73.363255,8372.008577,211.044342,220.8999939,2.299999952,14.39999962,,,,,,,,,,,,,,,,,
408.8335966,20.36131667,73.36193333,8365.612317,210.7746277,221.0599976,2.299999952,14.89999962,,,,,,,,,,,,,,,,,
409.8322231,20.35988667,73.360615,8359.316044,210.0046082,221.0299988,2.299999952,15.60000038,,,,,,,,,,,,,,,,,
410.8321486,20.35846,73.35930167,8351.719767,209.22995,221.0899963,2.299999952,16.5,,,,,,,,,,,,,,,,,
411.8335396,20.357035,73.35799167,8344.223492,209.058548,221.0200043,2.299999952,17.39999962,,,,,,,,,,,,,,,,,
412.8328929,20.35561167,73.35668333,8336.827215,208.8207397,220.9400024,2.400000095,17.20000076,,,,,,,,,,,,,,,,,
413.8323963,20.35418833,73.355375,8330.23094,208.1433716,220.8099976,2.400000095,17.89999962,,,,,,,,,,,,,,,,,
414.8321255,20.35277667,73.35406667,8318.934616,208.1670532,220.9499969,2.299999952,17.60000038,,,,,,,,,,,,,,,,,
415.8331357,20.35136833,73.35275333,8312.03827,207.5164337,220.8800049,2.200000048,17.89999962,,,,,,,,,,,,,,,,,
416.8332695,20.34995833,73.35144833,8304.34195,207.087677,221.0500031,2.200000048,17.79999924,,,,,,,,,,,,,,,,,
417.8345603,20.34854833,73.35015,8297.345644,206.6239166,220.9400024,2.200000048,17.39999962,,,,,,,,,,,,,,,,,
418.8316806,20.34714667,73.34885667,8288.649313,205.6227722,220.9700012,2.200000048,17.60000038,,,,,,,,,,,,,,,,,
419.8331984,20.345745,73.34757,8281.452996,205.5898285,220.9100037,2.200000048,20.70000076,,,,,,,,,,,,,,,,,
420.832679,20.34434833,73.34628333,8273.45666,204.9273834,220.8600006,2.200000048,20.5,,,,,,,,,,,,,,,,,
421.8336027,20.34295167,73.34500333,8267.760338,204.4667053,220.9499969,2.099999905,20.10000038,,,,,,,,,,,,,,,,,
422.8324536,20.34155833,73.34372667,8261.064011,204.0703735,220.8999939,2.099999905,19.5,,,,,,,,,,,,,,,,,
423.8334311,20.340165,73.34245667,8254.167697,203.532486,220.7599945,2.200000048,19.5,,,,,,,,,,,,,,,,,
424.8318188,20.338775,73.34119167,8247.071381,203.1680603,220.6499939,2.200000048,19.5,,,,,,,,,,,,,,,,,
425.8323523,20.33738333,73.33992833,8238.975077,202.8865204,220.8800049,2.200000048,19.0,,,,,,,,,,,,,,,,,
426.8331516,20.33600167,73.338665,8230.978731,202.6018677,220.8300018,2.200000048,19.70000076,,,,,,,,,,,,,,,,,
427.8329705,20.33462,73.33740167,8223.282387,201.9301605,220.8300018,2.200000048,19.5,,,,,,,,,,,,,,,,,
428.8318576,20.33324333,73.33614667,8215.286039,201.4298553,220.8600006,2.200000048,19.29999924,,,,,,,,,,,,,,,,,
429.8335582,20.33187,73.33488833,8207.789671,201.2697754,220.8200073,2.200000048,19.29999924,,,,,,,,,,,,,,,,,
430.8336276,20.3305,73.33362833,8200.893288,200.7154083,220.9499969,2.200000048,19.79999924,,,,,,,,,,,,,,,,,
431.8320988,20.32913167,73.33237167,8194.496906,200.337616,220.7599945,2.200000048,19.60000038,,,,,,,,,,,,,,,,,
432.8317216,20.327765,73.33112,8188.400528,199.9103851,220.7799988,2.200000048,20.0,,,,,,,,,,,,,,,,,
433.8311123,20.3264,73.32987333,8181.604154,199.5706787,220.8699951,2.200000048,19.0,,,,,,,,,,,,,,,,,
434.8317985,20.32503833,73.32862667,8175.007768,199.2185974,220.7299957,2.299999952,18.79999924,,,,,,,,,,,,,,,,,
435.8334769,20.32368,73.32738167,8169.511371,198.6925507,220.7400055,2.299999952,18.79999924,,,,,,,,,,,,,,,,,
436.8317059,20.32232333,73.32614,8164.214976,198.0712891,220.6999969,2.299999952,19.0,,,,,,,,,,,,,,,,,
437.8328059,20.32097,73.3249,8158.518571,197.915329,220.7200012,2.299999952,19.5,,,,,,,,,,,,,,,,,
438.8331741,20.31962167,73.323665,8153.022155,197.6384125,220.7599945,2.299999952,20.20000076,,,,,,,,,,,,,,,,,
439.8326575,20.31826333,73.32243833,8146.525801,197.2781067,220.6699982,2.200000048,20.0,,,,,,,,,,,,,,,,,
440.8317822,20.31691333,73.32120833,8140.529405,196.7319794,220.75,2.200000048,20.10000038,,,,,,,,,,,,,,,,,
441.8325529,20.31557167,73.31996833,8138.032956,196.7082977,220.6000061,2.200000048,19.70000076,,,,,,,,,,,,,,,,,
442.8323077,20.31422667,73.31874167,8131.736549,196.0386505,220.6600037,2.200000048,19.10000038,,,,,,,,,,,,,,,,,
443.8334299,20.31289,73.31751167,8128.340101,195.8826904,220.7200012,2.099999905,18.5,,,,,,,,,,,,,,,,,
444.8319083,20.31155667,73.31628333,8124.243643,194.8970032,220.7100067,2.099999905,18.39999962,,,,,,,,,,,,,,,,,
445.8336058,20.310225,73.315065,8117.847198,194.6252289,220.8500061,2.099999905,17.5,,,,,,,,,,,,,,,,,
446.8334563,20.30889833,73.31385,8111.950739,194.3539581,220.8399963,2.200000048,17.79999924,,,,,,,,,,,,,,,,,
447.8316473,20.30757333,73.31263667,8106.054278,193.7393799,220.75,2.200000048,18.39999962,,,,,,,,,,,,,,,,,
448.8321588,20.30625167,73.31142667,8104.05781,193.3023834,220.7400055,2.099999905,17.5,,,,,,,,,,,,,,,,,
449.8335516,20.30493167,73.31022,8101.261343,193.0167084,220.8000031,2.099999905,17.5,,,,,,,,,,,,,,,,,
450.833012,20.303615,73.309015,8095.664867,192.4381714,220.9600067,2.099999905,17.79999924,,,,,,,,,,,,,,,,,
451.8321196,20.30230167,73.30781,8092.168377,192.0099182,220.8800049,2.0,17.5,,,,,,,,,,,,,,,,,
452.8318218,20.30099167,73.30661167,8088.871887,191.6964569,220.8500061,2.0,17.29999924,,,,,,,,,,,,,,,,,
453.8332569,20.29968167,73.30541667,8083.175405,191.2949677,220.8300018,2.0,17.79999924,,,,,,,,,,,,,,,,,
454.8324566,20.29837833,73.30422167,8077.578895,190.8276062,220.8899994,2.0,16.79999924,,,,,,,,,,,,,,,,,
455.8336476,20.29707833,73.30302833,8071.982376,190.3314056,220.8399963,2.099999905,16.79999924,,,,,,,,,,,,,,,,,
456.8326092,20.29578333,73.30183833,8064.685842,190.009201,220.8600006,2.0,16.5,,,,,,,,,,,,,,,,,
457.8331428,20.29448833,73.30065,8059.489314,189.7945557,220.8800049,2.099999905,17.20000076,,,,,,,,,,,,,,,,,
458.8327985,20.293195,73.299465,8052.892786,189.1115112,220.8800049,2.099999905,17.60000038,,,,,,,,,,,,,,,,,
459.8323587,20.29190333,73.29828333,8045.896258,188.7311401,220.8399963,2.200000048,17.39999962,,,,,,,,,,,,,,,,,
460.8315311,20.29061667,73.297105,8039.499717,188.3656921,220.8399963,2.200000048,17.39999962,,,,,,,,,,,,,,,,,
461.831865,20.28933,73.29593,8032.803183,188.1026611,220.7100067,2.299999952,18.20000076,,,,,,,,,,,,,,,,,
462.8316019,20.288045,73.29475833,8026.90665,187.4314575,220.8999939,2.299999952,18.39999962,,,,,,,,,,,,,,,,,
463.8319533,20.28677,73.293585,8021.110071,187.2451324,220.8800049,2.400000095,18.39999962,,,,,,,,,,,,,,,,,
464.8320019,20.28550167,73.29241333,8016.213468,186.5116577,221.0099945,2.400000095,17.20000076,,,,,,,,,,,,,,,,,
465.8347234,20.28425167,73.29124333,8013.116789,185.7503815,221.1399994,2.299999952,16.5,,,,,,,,,,,,,,,,,
466.8328744,20.28298333,73.29007667,8006.520199,186.5677643,220.8899994,2.299999952,17.0,,,,,,,,,,,,,,,,,
467.8332613,20.28172,73.28891167,8000.623591,185.1239624,221.0700073,2.299999952,17.20000076,,,,,,,,,,,,,,,,,
468.8318126,20.28046,73.28774833,7992.626973,185.0987396,221.0099945,2.200000048,17.20000076,,,,,,,,,,,,,,,,,
469.831585,20.2792,73.28659,7985.830366,185.0755768,220.9700012,2.299999952,17.39999962,,,,,,,,,,,,,,,,,
470.8329034,20.27794167,73.28543167,7979.133754,184.7543945,221.0399933,2.299999952,17.10000038,,,,,,,,,,,,,,,,,
471.8349105,20.27668833,73.284275,7969.237124,184.3503418,220.9700012,2.200000048,16.0,,,,,,,,,,,,,,,,,
472.8322403,20.27542833,73.28312167,7961.440531,184.8465271,220.7700043,2.200000048,15.60000038,,,,,,,,,,,,,,,,,
473.8347686,20.27416833,73.28197,7953.943943,184.0775299,220.8699951,2.200000048,15.89999962,,,,,,,,,,,,,,,,,
474.8322745,20.27291333,73.28082,7945.747337,183.7259827,220.8999939,2.200000048,15.89999962,,,,,,,,,,,,,,,,,
475.8333704,20.27165667,73.27967,7936.650741,184.2396698,220.7700043,2.200000048,16.20000076,,,,,,,,,,,,,,,,,
476.8319446,20.27040167,73.27852333,7926.154145,183.2266998,221.0099945,2.200000048,14.80000019,,,,,,,,,,,,,,,,,
477.8336468,20.26915,73.277375,7917.557533,183.4747925,220.9299927,2.200000048,14.89999962,,,,,,,,,,,,,,,,,
478.833184,20.26789833,73.27622833,7908.460925,183.2421417,220.9199982,2.200000048,15.60000038,,,,,,,,,,,,,,,,,
479.8320052,20.26664667,73.27508167,7899.764319,182.9652252,220.7599945,2.299999952,16.60000038,,,,,,,,,,,,,,,,,
480.831979,20.26540167,73.273935,7890.967686,183.338913,220.8300018,2.200000048,16.60000038,,,,,,,,,,,,,,,,,
481.8344723,20.26414833,73.27279333,7882.371099,182.8360291,220.8099976,2.200000048,15.39999962,,,,,,,,,,,,,,,,,
482.8324625,20.2629,73.271655,7874.674499,182.6718292,220.5800018,2.099999905,15.30000019,,,,,,,,,,,,,,,,,
483.8351326,20.26164833,73.27052,7865.977921,182.7799225,220.4799957,2.099999905,15.30000019,,,,,,,,,,,,,,,,,
484.8327037,20.26038833,73.269395,7856.6814,182.3490906,219.9299927,2.099999905,15.80000019,,,,,,,,,,,,,,,,,
485.8336354,20.25912,73.26828167,7847.484938,182.8807983,219.3500061,2.200000048,16.0,,,,,,,,,,,,,,,,,
486.8322185,20.25784,73.26718,7838.188551,182.453064,218.75,2.200000048,15.89999962,,,,,,,,,,,,,,,,,
487.8317815,20.25654167,73.26609833,7828.092284,182.7686005,217.8300018,2.200000048,16.39999962,,,,,,,,,,,,,,,,,
488.8331978,20.25524,73.26503833,7817.796073,182.098938,216.9600067,2.200000048,16.5,,,,,,,,,,,,,,,,,
489.8326093,20.253915,73.26401,7808.300025,182.1272583,216.1100006,2.200000048,17.29999924,,,,,,,,,,,,,,,,,
490.8329293,20.25258833,73.262985,7798.403991,182.5843201,215.0700073,2.900000095,17.39999962,,,,,,,,,,,,,,,,,
491.8330982,20.25123333,73.26199833,7789.108155,182.3074036,213.7799988,2.900000095,13.0,,,,,,,,,,,,,,,,,
492.8327425,20.24985667,73.26104667,7777.912481,182.2801208,212.6399994,2.799999952,13.69999981,,,,,,,,,,,,,,,,,
493.8315643,20.24846333,73.26012667,7766.11694,181.3948059,211.4199982,2.799999952,14.30000019,,,,,,,,,,,,,,,,,
494.8322976,20.24705167,73.25923833,7755.22154,181.744812,210.0599976,2.799999952,14.69999981,,,,,,,,,,,,,,,,,
495.8340203,20.24561667,73.25838833,7744.626314,181.9414368,208.6199951,2.799999952,15.69999981,,,,,,,,,,,,,,,,,
496.8334517,20.244165,73.25757333,7733.631228,181.780838,207.3500061,2.700000048,16.60000038,,,,,,,,,,,,,,,,,
497.8318975,20.2427,73.25679667,7722.536273,181.0921478,206.0500031,2.799999952,17.39999962,,,,,,,,,,,,,,,,,
498.8321646,20.24122167,73.25605333,7711.741439,181.2069244,204.8899994,2.799999952,17.10000038,,,,,,,,,,,,,,,,,
499.8312126,20.239725,73.255345,7701.046751,181.3948059,203.4499969,2.700000048,17.0,,,,,,,,,,,,,,,,,
500.832137,20.23822,73.25467833,7691.252178,180.5645599,201.9100037,2.799999952,17.60000038,,,,,,,,,,,,,,,,,
501.8322859,20.2367,73.25405,7679.557743,181.2388458,200.8399963,2.799999952,17.5,,,,,,,,,,,,,,,,,
502.8317739,20.23517,73.253455,7668.563414,180.7174225,199.7100067,2.799999952,17.79999924,,,,,,,,,,,,,,,,,
503.8322156,20.23363167,73.25289,7660.269178,180.7153625,198.5500031,2.799999952,18.60000038,,,,,,,,,,,,,,,,,
504.8326579,20.232085,73.252355,7652.375035,180.2603607,197.6399994,2.799999952,19.39999962,,,,,,,,,,,,,,,,,
505.8331996,20.230535,73.25184167,7648.780947,180.2948456,197.3000031,2.700000048,16.70000076,,,,,,,,,,,,,,,,,
506.8317582,20.22897833,73.25134333,7644.486917,180.2639618,196.7700043,2.599999905,16.20000076,,,,,,,,,,,,,,,,,
507.8326988,20.22741667,73.25086,7637.492937,179.8387909,196.3999939,2.5,16.0,,,,,,,,,,,,,,,,,
508.832001,20.22586167,73.25037833,7630.898932,179.7173157,196.1199951,2.599999905,16.70000076,,,,,,,,,,,,,,,,,
509.831836,20.224305,73.24991333,7623.904965,179.3781281,195.6199951,2.599999905,17.0,,,,,,,,,,,,,,,,,
510.8317471,20.22274167,73.24946333,7616.911056,179.3390045,195.2899933,2.599999905,17.89999962,,,,,,,,,,,,,,,,,
511.8317868,20.22117833,73.249015,7606.317151,179.006485,195.5099945,2.599999905,18.5,,,,,,,,,,,,,,,,,
512.8317467,20.21962167,73.24856167,7594.723208,179.1289978,195.1699982,2.599999905,18.89999962,,,,,,,,,,,,,,,,,
513.8335132,20.21806167,73.24811333,7588.829289,178.8366394,195.0899963,2.5,18.29999924,,,,,,,,,,,,,,,,,
514.8318073,20.216505,73.24766333,7582.435354,178.6343536,195.1199951,2.5,18.70000076,,,,,,,,,,,,,,,,,
515.8333111,20.214945,73.24722167,7578.041449,178.2019806,195.0399933,2.5,16.89999962,,,,,,,,,,,,,,,,,
516.8316311,20.213395,73.246775,7569.547492,178.3352966,195.0800018,2.5,15.39999962,,,,,,,,,,,,,,,,,
517.8315957,20.21184167,73.24632667,7562.553547,178.0799866,195.3099976,2.5,15.60000038,,,,,,,,,,,,,,,,,
518.8317972,20.21028833,73.24588,7554.759606,178.2225647,195.1799927,2.599999905,16.20000076,,,,,,,,,,,,,,,,,
519.833281,20.20873167,73.24543167,7553.265678,177.5323334,195.1699982,2.599999905,16.89999962,,,,,,,,,,,,,,,,,
520.8314916,20.20718833,73.244985,7545.071694,177.0212097,195.3899994,2.700000048,18.39999962,,,,,,,,,,,,,,,,,
521.8319064,20.20564667,73.24453667,7536.977701,176.835907,195.3399963,2.799999952,20.0,,,,,,,,,,,,,,,,,
522.8316326,20.20411167,73.244085,7523.483673,177.8828583,195.3899994,2.799999952,18.70000076,,,,,,,,,,,,,,,,,
523.8314843,20.20257,73.24362833,7515.789666,177.1416473,195.5500031,2.900000095,19.89999962,,,,,,,,,,,,,,,,,
524.8315613,20.20102667,73.24317,7508.495664,177.7598267,195.7100067,2.900000095,23.0,,,,,,,,,,,,,,,,,
525.8335311,20.199485,73.24271333,7500.801658,176.8395081,195.7599945,3.0,24.20000076,,,,,,,,,,,,,,,,,
526.832811,20.19795,73.242255,7494.407621,176.8076019,195.7400055,3.0,24.89999962,,,,,,,,,,,,,,,,,
527.8329711,20.19641167,73.24180333,7486.713612,177.1673889,195.6300049,3.0,24.60000038,,,,,,,,,,,,,,,,,
528.8326631,20.19487667,73.24134667,7480.919579,176.0689697,195.9299927,3.099999905,24.89999962,,,,,,,,,,,,,,,,,
529.833243,20.19334833,73.240885,7477.325509,176.4122925,195.7899933,3.099999905,25.39999962,,,,,,,,,,,,,,,,,
530.83184,20.19182167,73.24042333,7475.131432,176.2182465,195.6300049,3.099999905,25.39999962,,,,,,,,,,,,,,,,,
531.833281,20.19029833,73.239965,7469.637347,175.6304321,196.0,3.099999905,25.29999924,,,,,,,,,,,,,,,,,
532.8321459,20.18878,73.2395,7465.443229,175.4636536,196.1100006,3.099999905,25.29999924,,,,,,,,,,,,,,,,,
533.8335373,20.187265,73.23903833,7461.549102,174.4156799,195.8399963,3.099999905,26.29999924,,,,,,,,,,,,,,,,,
534.8319107,20.18575167,73.23858333,7457.754982,174.5278931,195.7299957,3.099999905,25.5,,,,,,,,,,,,,,,,,
535.8320141,20.18424,73.23812833,7450.860854,173.8603058,196.0500031,3.099999905,25.5,,,,,,,,,,,,,,,,,
536.8315876,20.182735,73.23766167,7449.266677,174.1027374,195.8600006,3.200000048,25.39999962,,,,,,,,,,,,,,,,,
537.8343024,20.18122667,73.23720167,7445.272527,173.9308167,195.9700012,3.200000048,24.29999924,,,,,,,,,,,,,,,,,
538.8318467,20.17970667,73.23676167,7429.278466,172.943573,196.1699982,2.900000095,16.79999924,,,,,,,,,,,,,,,,,
539.8319267,20.17819833,73.23630833,7419.18433,173.7856598,196.1199951,2.799999952,15.60000038,,,,,,,,,,,,,,,,,
540.833136,20.17669833,73.23584333,7411.590136,172.9945374,196.1799927,2.700000048,15.39999962,,,,,,,,,,,,,,,,,
541.8317486,20.1752,73.23538,7404.695939,172.700119,196.1600037,2.700000048,14.39999962,,,,,,,,,,,,,,,,,
542.8322939,20.17370667,73.23492,7397.801727,172.1797333,196.2299957,2.700000048,15.19999981,,,,,,,,,,,,,,,,,
543.8327779,20.17221833,73.23445833,7389.70749,172.3130493,196.4100037,2.799999952,16.29999924,,,,,,,,,,,,,,,,,
544.8336901,20.17072667,73.23399667,7381.813269,172.5729828,196.1499939,2.900000095,16.60000038,,,,,,,,,,,,,,,,,
545.8333179,20.169235,73.23353667,7373.319051,172.4772339,196.3099976,2.900000095,17.29999924,,,,,,,,,,,,,,,,,
546.833689,20.167745,73.23307667,7365.524827,171.9681854,196.1699982,2.900000095,17.29999924,,,,,,,,,,,,,,,,,
547.832936,20.16625833,73.23262333,7357.830601,172.1061249,195.9400024,2.900000095,17.20000076,,,,,,,,,,,,,,,,,
548.8329019,20.16477333,73.23216667,7351.236362,171.4992676,196.1999969,3.0,17.70000076,,,,,,,,,,,,,,,,,
549.8332908,20.16329667,73.23170333,7342.042075,171.4812469,196.7799988,3.0,18.89999962,,,,,,,,,,,,,,,,,
550.8331705,20.16181667,73.23123667,7333.947798,171.3062439,196.2400055,3.099999905,19.10000038,,,,,,,,,,,,,,,,,
551.8347739,20.160335,73.230775,7326.153538,171.730896,196.2599945,3.200000048,19.29999924,,,,,,,,,,,,,,,,,
552.8322366,20.15884667,73.23031167,7318.859305,171.9738464,196.4199982,3.299999952,19.60000038,,,,,,,,,,,,,,,,,
553.8317877,20.157365,73.22984667,7310.76504,171.1986694,196.6000061,3.200000048,20.0,,,,,,,,,,,,,,,,,
554.8331182,20.15589167,73.22933167,7314.77065,171.424118,196.4400024,3.0,16.89999962,,,,,,,,,,,,,,,,,
555.8328113,20.15441333,73.22885167,7311.176345,171.2557983,196.6799927,2.799999952,15.5,,,,,,,,,,,,,,,,,
556.8322351,20.15293833,73.22837833,7303.582038,171.2702179,196.6999969,2.799999952,15.5,,,,,,,,,,,,,,,,,
